[
  {
    "id": 201,
    "type": "node",
    "name": "Gate Turn",
    "floor": 0,
    "lat": 15.430991132210844, 
    "lng": 75.01297917742667
  },
  {
    "id": 202,
    "type": "node",
    "name": "Admin Corner",
    "floor": 0,
    "lat": 15.430989839452204,
    "lng": 75.01447517950396
  },
  {
    "id": 203,
    "type": "node",
    "name": "Girls Hostel",
    "floor": 0,
    "lat": 15.431065465889692, 
    "lng": 75.0130670197747
  },
  {
    "id": 204,
    "type": "node",
    "name": "Main Junction 1",
    "floor": 0,
    "lat": 15.430954934929087, 
    "lng": 75.01317631979025
  },
  {
    "id": 205,
    "type": "node",
    "name": "Back Gate Corner",
    "floor": 0,
    "lat": 15.4296613319,
    "lng": 75.0156049757
  },
  {
    "id": 206,
    "type": "node",
    "name": "Karavali Corner",
    "floor": 0,
    "lat": 15.4305222475,
    "lng": 75.015520279
  },
  {
    "id": 207,
    "type": "node",
    "name": "4 wheeler Parking Corner",
    "floor": 0,
    "lat": 15.4306683297,
    "lng": 75.0153620287
  },
  {
    "id": 208,
    "type": "node",
    "name": "People Tree",
    "floor": 0,
    "lat": 15.4307536519,
    "lng": 75.0154116495
  },
  {
    "id": 209,
    "type": "node",
    "name": "HOD's Parking Node",
    "floor": 0,
    "lat": 15.4308803425,
    "lng": 75.0152842446
  },
  {
    "id": 210,
    "type": "node",
    "name": "Admin Entrance - 2",
    "floor": 0,
    "lat": 15.4307303822,
    "lng": 75.0151729329
  },
  {
    "id": 211,
    "type": "node",
    "name": "Knowledge Tree Entrance ",
    "floor": 0,
    "lat": 15.430301185,
    "lng": 75.0152735158
  },
  {
    "id": 212,
    "type": "node",
    "name": "2 Wheeler Parking ",
    "floor": 0,
    "lat": 15.4310096006,
    "lng": 75.0150751401
  },
  {
    "id": 213,
    "type": "node",
    "name": "Parking Entrance 2",
    "floor": 0,
    "lat": 15.4309759888,
    "lng": 75.0149799217
  },
  {
    "id": 214,
    "type": "node",
    "name": "Parking Entrance",
    "floor": 0,
    "lat": 15.4310251137,
    "lng": 75.0149222542
  },
  {
    "id": 215,
    "type": "node",
    "name": "Back Gate Corner",
    "description": "",
    "floor": 0,
    "lat": 15.4296613319,
    "lng": 75.0156049757
  },
  {
    "id": 216,
    "type": "node",
    "name": "Karavali Corner",
    "description": "",
    "floor": 0,
    "lat": 15.4305222475,
    "lng": 75.015520279
  },
  {
    "id": 217,
    "type": "node",
    "name": "4 wheeler Parking Corner",
    "description": "",
    "floor": 0,
    "lat": 15.4306683297,
    "lng": 75.0153620287
  },
  {
    "id": 218,
    "type": "node",
    "name": "People Tree",
    "description": "",
    "floor": 0,
    "lat": 15.4307536519,
    "lng": 75.0154116495
  },
  {
    "id": 219,
    "type": "node",
    "name": "HOD's Parking Node",
    "description": "",
    "floor": 0,
    "lat": 15.4308803425,
    "lng": 75.0152842446
  },
  {
    "id": 220,
    "type": "node",
    "name": "Admin Entrance - 2",
    "description": "",
    "floor": 0,
    "lat": 15.4307303822,
    "lng": 75.0151729329
  },
  {
    "id": 221,
    "type": "node",
    "name": "Knowledge Tree Entrance ",
    "description": "",
    "floor": 0,
    "lat": 15.430301185,
    "lng": 75.0152735158
  },
  {
    "id": 222,
    "type": "node",
    "name": "2 Wheeler Parking ",
    "description": "",
    "floor": 0,
    "lat": 15.4310096006,
    "lng": 75.0150751401
  },
  {
    "id": 223,
    "type": "node",
    "name": "Parking Entrance 2",
    "description": "",
    "floor": 0,
    "lat": 15.4309759888,
    "lng": 75.0149799217
  },
  {
    "id": 224,
    "type": "node",
    "name": "Parking Entrance",
    "description": "",
    "floor": 0,
    "lat": 15.4310251137,
    "lng": 75.0149222542
  },
  {
    "id": 225,
    "type": "node",
    "name": "Ganapati Temple Cross",
    "description": "",
    "floor": 0,
    "lat": 15.4302135938,
    "lng": 75.0156037174
  },
  {
    "id": 226,
    "type": "node",
    "name": "Temple Entrance",
    "description": "",
    "floor": 0,
    "lat": 15.4302536695,
    "lng": 75.0160851739
  },
  {
    "id": 227,
    "type": "node",
    "name": "Temple Entrance ",
    "description": "",
    "floor": 0,
    "lat": 15.430486367,
    "lng": 75.0160503052
  },
  {
    "id": 228,
    "type": "node",
    "name": "Main Temple Entrance",
    "description": "",
    "floor": 0,
    "lat": 15.430393288,
    "lng": 75.016484823
  },
  {
    "id": 229,
    "type": "node",
    "name": "Temple Exit",
    "description": "",
    "floor": 0,
    "lat": 15.4303066728,
    "lng": 75.0164794586
  },
  {
    "id": 230,
    "type": "node",
    "name": "Back Gate Corner",
    "description": "",
    "floor": 0,
    "lat": 15.430256255,
    "lng": 75.0165518782
  },
  {
    "id": 231,
    "type": "node",
    "name": "Incubation Cross",
    "description": "",
    "floor": 0,
    "lat": 15.4301943164,
    "lng": 75.0152931165
  },
  {
    "id": 232,
    "type": "node",
    "name": "Canteen Entrance",
    "description": "",
    "floor": 0,
    "lat": 15.4301645828,
    "lng": 75.0154486846
  },
  {
      "id": 1,
      "type": "node",
      "name": "Back Gate Corner",
      "description": "",
      "floor": 0,
      "lat": 15.4296613319,
      "lng": 75.0156049757
  },
  {
      "id": 2,
      "type": "node",
      "name": "Karavali Corner",
      "description": "",
      "floor": 0,
      "lat": 15.4305222475,
      "lng": 75.015520279
  },
  {
      "id": 3,
      "type": "node",
      "name": "4 wheeler Parking Corner",
      "description": "",
      "floor": 0,
      "lat": 15.4306683297,
      "lng": 75.0153620287
  },
  {
      "id": 4,
      "type": "node",
      "name": "People Tree",
      "description": "",
      "floor": 0,
      "lat": 15.4307536519,
      "lng": 75.0154116495
  },
  {
      "id": 5,
      "type": "node",
      "name": "HOD's Parking Node",
      "description": "",
      "floor": 0,
      "lat": 15.4308803425,
      "lng": 75.0152842446
  },
  {
      "id": 6,
      "type": "node",
      "name": "Admin Entrance - 2",
      "description": "",
      "floor": 0,
      "lat": 15.4307303822,
      "lng": 75.0151729329
  },
  {
      "id": 7,
      "type": "node",
      "name": "Knowledge Tree Entrance ",
      "description": "",
      "floor": 0,
      "lat": 15.430301185,
      "lng": 75.0152735158
  },
  {
      "id": 8,
      "type": "node",
      "name": "2 Wheeler Parking ",
      "description": "",
      "floor": 0,
      "lat": 15.4310096006,
      "lng": 75.0150751401
  },
  {
      "id": 9,
      "type": "node",
      "name": "Parking Entrance 2",
      "description": "",
      "floor": 0,
      "lat": 15.4309759888,
      "lng": 75.0149799217
  },
  {
      "id": 10,
      "type": "node",
      "name": "Parking Entrance",
      "description": "",
      "floor": 0,
      "lat": 15.4310251137,
      "lng": 75.0149222542
  },
  {
      "id": 11,
      "type": "node",
      "name": "Ganapati Temple Cross",
      "description": "",
      "floor": 0,
      "lat": 15.4302135938,
      "lng": 75.0156037174
  },
  {
      "id": 498,
      "type": "node",
      "name": "Temple Entrance",
      "description": "",
      "floor": 0,
      "lat": 15.4302536695,
      "lng": 75.0160851739
  },
  {
      "id": 499,
      "type": "node",
      "name": "Temple Entrance ",
      "description": "",
      "floor": 0,
      "lat": 15.430486367,
      "lng": 75.0160503052
  },
  {
      "id": 500,
      "type": "node",
      "name": "Main Temple Entrance",
      "description": "",
      "floor": 0,
      "lat": 15.430393288,
      "lng": 75.016484823
  },
  {
      "id": 501,
      "type": "node",
      "name": "Temple Exit",
      "description": "",
      "floor": 0,
      "lat": 15.4303066728,
      "lng": 75.0164794586
  },
  {
      "id": 503,
      "type": "node",
      "name": "Back Gate Corner",
      "description": "",
      "floor": 0,
      "lat": 15.430256255,
      "lng": 75.0165518782
  },
  {
      "id": 17,
      "type": "node",
      "name": "Incubation Cross",
      "description": "",
      "floor": 0,
      "lat": 15.4301943164,
      "lng": 75.0152931165
  },
  {
      "id": 18,
      "type": "node",
      "name": "Canteen Entrance",
      "description": "",
      "floor": 0,
      "lat": 15.4301645828,
      "lng": 75.0154486846
  },
  {
      "id": 19,
      "type": "node",
      "name": "Parking Entrance",
      "description": "",
      "floor": 0,
      "lat": 15.430271008,
      "lng": 75.0150859053
  },
  {
      "id": 20,
      "type": "node",
      "name": "Admin Main Entrance",
      "description": "",
      "floor": 0,
      "lat": 15.4307149376,
      "lng": 75.0146747504
  },
  {
      "id": 21,
      "type": "node",
      "name": "Auditorium Cross",
      "description": "",
      "floor": 0,
      "lat": 15.430678578,
      "lng": 75.0148819956
  },
  {
      "id": 22,
      "type": "node",
      "name": "Bank Cross",
      "description": "",
      "floor": 0,
      "lat": 15.4305518873,
      "lng": 75.0149114999
  },
  {
  "id": 23,
  "type": "node",
  "name": "Cross",
  "description": "",
  "floor": 0,
  "lat": 15.4306743204,
  "lng": 75.0150881753
  },
  {
  "id": 24,
  "type": "node",
  "name": "Knowledge Tree Cross",
  "description": "",
  "floor": 0,
  "lat": 15.4303338927,
  "lng": 75.0151328787
  }
]