[
  {
    "id": 101,
    "type": "place",
    "name": "SDM Main Entrance",
    "description": "College main gate",
    "floor": 0,
    "lat": 15.431261313098682, 
    "lng": 75.01260992331335
  },
  {
    "id": 102,
    "type": "place",
    "name": "Girls Hostel 2",
    "description": "Girls Hostel",
    "floor": 0,
    "lat": 15.431201340411992, 
    "lng": 75.0134779885397
  },
  {
    "id": 103,
    "type": "place",
    "name": "Girls Hostel 1",
    "description": "Girls hostel",
    "floor": 0,
    "lat": 15.43136099603163, 
    "lng": 75.0132761523082
  },
  {
    "id": 104,
    "type": "place",
    "name": "Cafeteria",
    "description": "College Fast Food",
    "floor": 0,
    "lat": 15.43113799523272, 
    "lng": 75.01439463347182
  },
  {
    "id": 105,
    "type": "place",
    "name": "Ganapati Temple",
    "description": "Local Hindu temple",
    "floor": 0,
    "lat": 15.430416658399167,
    "lng": 75.01662496027097
  },
  {
    "id": 106,
    "type": "place",
    "name": "SDMCET Back Gate",
    "description": "College back gate",
    "floor": 0,
    "lat": 15.429703051750135, 
    "lng": 75.01661691364393
  },
  {
    "id": 107,
    "type": "place",
    "name": "Mess",
    "description": "College Fast Food",
    "floor": 0,
    "lat": 15.429020469181712, 
    "lng": 75.01478764709577
  },
  {
    "id": 108,
    "type": "place",
    "name": "SDMCET Ground",
    "description": "College Ground",
    "floor": 0,
    "lat": 15.427892932851313, 
    "lng": 75.01475009616956
  },
  {
    "id": 109,
    "type": "place",
    "name": "Boys Hostel",
    "description": "College Hostel",
    "floor": 0,
    "lat": 15.427980841815762, 
    "lng": 75.01582834419355
  },
  {
    "id": 110,
    "type": "place",
    "name": "Boys Hostel2",
    "description": "College Hostel",
    "floor": 0,
    "lat": 15.42846175490355, 
    "lng": 75.01606706079588
  },
  {
    "id": 111,
    "type": "place",
    "name": "Boys Hostel3",
    "description": "College Hostel",
    "floor": 0,
    "lat": 15.428999548865082, 
    "lng": 75.01582834419355
  },
  {
    "id": 112,
    "type": "place",
    "name": "Alumni Block",
    "description": "College Alumni Block",
    "floor": 0,
    "lat": 15.429502978472506, 
    "lng": 75.01606706079588
  },
  {
    "id": 113,
    "type": "place",
    "name": "Canteen",
    "description": "College Good Food",
    "floor": 0,
    "lat": 15.430084228029813,
    "lng": 75.01541528400526
  },
  {
    "id": 114,
    "type": "place",
    "name": "Knowledge Tree",
    "description": "College Knowledge Center",
    "floor": 0,
    "lat": 15.430484984953168,
    "lng": 75.01523825821027
  },
  {
    "id": 115,
    "type": "place",
    "name": "Karnataka Bank",
    "description": "College Karnataka Bank Branch",
    "floor": 0,
    "lat": 15.430516011263363,
    "lng": 75.01499417718992
  },
  {
    "id": 116,
    "type": "place",
    "name": "Karnataka Bank ATM",
    "description": "College Karnataka Bank ATM",
    "floor": 0,
    "lat": 15.43112360890317,
    "lng": 75.01451610324987
  },
  {
    "id": 117,
    "type": "place",
    "name": "Admin Block",
    "description": "College Admin Block",
    "floor": 0,
    "lat": 15.430647882549417,
    "lng": 75.01461531678275
  },
  {
    "id": 118,
    "type": "place",
    "name": "CSE Department",
    "description": "Computer Science and Engineering Department",
    "floor": 1,
    "lat": 15.430554803664092,
    "lng": 75.01448120633201
  },
  {
    "id": 119,
    "type": "place",
    "name": "ISE Department",
    "description": "Information Science and Engineering Department",
    "floor": 2,
    "lat": 15.430819302266434, 
    "lng": 75.01413756219642
  },
  {
    "id": 120,
    "type": "place",
    "name": "ECE Department",
    "description": "Electronics and Communication Engineering Department",
    "floor": 1,
    "lat": 15.430813356020302,
    "lng": 75.01368995467261
  },
  {
    "id": 121,
    "type": "place",
    "name": "Library",
    "description": "College Library",
    "floor": 1,
    "lat": 15.430231612765962,
    "lng": 75.01417007008628
  },
  {
    "id": 122,
    "type": "place",
    "name": "Placement Office",
    "description": "College Placement Office",
    "floor": 0,
    "lat": 15.430249711469548,
    "lng": 75.01422371426658
  },
  {
    "id": 123,
    "type": "place",
    "name": "MBA Department",
    "description": "Master of Business Administration Department",
    "floor": 2,
    "lat": 15.430179902175558,
    "lng": 75.01414861241416
  },
  {
    "id": 124,
    "type": "place",
    "name": "Chemical Department",
    "description": "Chemical Engineering Department",
    "floor": 2,
    "lat": 15.430280737814906,
    "lng": 75.01479502478675
  },
  {
    "id": 125,
    "type": "place",
    "name": "Transportation Section",
    "description": "Transportation Details Room",
    "floor": 0,
    "lat": 15.4305855929,
    "lng": 75.0156208618
  },
  {
    "id": 126,
    "type": "place",
    "name": "Karavali",
    "description": "Snacks Shop",
    "floor": 0,
    "lat": 15.4305855929,
    "lng": 75.0157201036
  },
  {
    "id": 127,
    "type": "place",
    "name": "Xerox Shop",
    "description": "Print Shop",
    "floor": 0,
    "lat": 15.430595935,
    "lng": 75.0157804533
  },
  {
    "id": 129,
    "type": "place",
    "name": "Student 2W Parking",
    "description": "Student parking",
    "floor": 0,
    "lat": 15.4310057223,
    "lng": 75.0151824285
  },
  {
    "id": 130,
    "type": "place",
    "name": "Student Parking",
    "description": "Parking",
    "floor": 0,
    "lat": 15.431071653,
    "lng": 75.0149866272
  },
  {
    "id": 131,
    "type": "place",
    "name": "Faculty Parking",
    "description": "Faculty parking",
    "floor": 0,
    "lat": 15.4303265969,
    "lng": 75.0149973924
  },
  {
    "id": 132,
    "type": "place",
    "name": "Post Office",
    "description": "Indian Post",
    "floor": 0,
    "lat": 15.4305862827,
    "lng": 75.0149609988
  },
  {
    "id": 133,
    "type": "place",
    "name": "Examination Section",
    "description": "Exam Section",
    "floor": 1,
    "lat": 15.4305216445,
    "lng": 75.0150387829
  },
  {
      "id": 3,
      "type": "place",
      "name": "Transportation Section",
      "description": "Transportation Details Room",
      "floor": 0,
      "lat": 15.4305855929,
      "lng": 75.0156208618
  },
  {
      "id": 5,
      "type": "place",
      "name": "Xerox Shop",
      "description": "Xerox and Print Shop",
      "floor": 0,
      "lat": 15.430595935,
      "lng": 75.0157804533
  },
  {
      "id": 7,
      "type": "place",
      "name": "HOD's 4 wheeler Parking",
      "description": "4 wheeler Parking",
      "floor": 0,
      "lat": 15.4309294494,
      "lng": 75.015240096
  },
  {
      "id": 8,
      "type": "place",
      "name": "Student 2 wheeler Parking",
      "description": "General 2 wheeler Parking",
      "floor": 0,
      "lat": 15.4310057223,
      "lng": 75.0151824285
  },
  {
      "id": 9,
      "type": "place",
      "name": "Student Parking",
      "description": "2 Wheeler Parking",
      "floor": 0,
      "lat": 15.431071653,
      "lng": 75.0149866272
  },
  {
      "id": 10,
      "type": "place",
      "name": "Ganapati Temple Main Entrance",
      "description": "Temple Main Entrance",
      "floor": 0,
      "lat": 15.430371311,
      "lng": 75.016125407
  },
  {
      "id": 11,
      "type": "place",
      "name": "Faculty Parking",
      "description": "All Faculty Parking",
      "floor": 0,
      "lat": 15.4303265969,
      "lng": 75.0149973924
  },
  {
      "id": 12,
      "type": "place",
      "name": "Post Offices",
      "description": "Indian Post SDMCET",
      "floor": 0,
      "lat": 15.4305862827,
      "lng": 75.0149609988
  },
  {
      "id": 14,
      "type": "place",
      "name": "Examination Section",
      "description": "Main Exam Section",
      "floor": 1,
      "lat": 15.4305216445,
      "lng": 75.0150387829
  },
  {
      "id": 15,
      "type": "place",
      "name": "Cooperative Society ",
      "description": "Book Stall",
      "floor": 0,
      "lat": 15.4304518402,
      "lng": 75.0149733206
  },
  {
  "id": 16,
  "type": "place",
  "name": "Auditorium",
  "description": "Auditorium of SDMCET",
  "floor": -1,
  "lat": 15.4304411962,
  "lng": 75.0144109662
},
{
  "id": 17,
  "type": "place",
  "name": "EEE Department",
  "description": "Electronics and Electrical Engineering Department",
  "floor": 0,
  "lat": 15.430790861525653, 
  "lng": 75.01363598910656
},
{
  "id": 18,
  "type": "place",
  "name": "Indoor Block",
  "description": "",
  "floor": 0,
  "lat": 15.4293175223,
  "lng": 75.013871981
}
]